place_id,place_name,url,postal_code,address,lat,lon,place_category,last_update_dt
pid_1,Adam Road Food Centre,,289876,"2, Adam Road, S(289876)",1.324159853,103.8141659,,2021-04-13 23:11:41.325570
pid_2,Amoy Street Food Centre,,069111,"National Development Building, Annex B, Telok Ayer Street, S(069111)",1.279339864,103.8466525,,2021-04-13 23:11:41.366309
pid_3,Bedok Food Centre,,469572,"1, Bedok Road, S(469572)",1.320354084,103.9554719,,2021-04-13 23:11:41.407535
pid_4,Beo Crescent Market,,169982,"38A, Beo Crescent, S(169982)",1.288840079,103.82740079999999,,2021-04-13 23:11:41.445680
pid_5,Berseh Food Centre,,208877,"166, Jalan Besar, S(208877)",1.307336537,103.856854,,2021-04-13 23:11:41.481788
pid_6,Bukit Timah Market,,588215,"51, Upper Bukit Timah Road, S(588215)",1.339609749,103.7760889,,2021-04-13 23:11:41.519717
pid_7,Chomp Chomp Food Centre,,557269,"20, Kensington Park Road, S(557269)",1.364223804,103.8665695,,2021-04-13 23:11:41.549502
pid_8,Commonwealth Crescent Market,,149644,"31, Commonwealth Crescent, S(149644)",1.306995341,103.80035649999999,,2021-04-13 23:11:41.590045
pid_9,Dunman Food Centre,,424768,"271, Onan Road, S(424768)",1.309403498,103.9018502,,2021-04-13 23:11:41.627441
pid_10,East Coast Lagoon Food Village,,468960,"1220, East Coast Parkway, S(468960)",1.306905736,103.9351379,,2021-04-13 23:11:41.662566
pid_11,Geylang Serai Market,,402001,"Geylang Serai, S(402001)",1.3167363490000001,103.89822790000001,,2021-04-13 23:11:41.702525
pid_12,Golden Mile Food Centre,,199583,"505, Beach Road, S(199583)",1.303141515,103.8638774,,2021-04-13 23:11:41.739167
pid_13,Holland Village Market & Food Centre,,277700,"1, Lorong Mambong, S(277700)",1.311148964,103.79483379999999,,2021-04-13 23:11:41.775695
pid_14,Kallang Estate Market,,397972,"17, Old Airport Road, S(397972)",1.3073961729999999,103.8841302,,2021-04-13 23:11:41.809851
pid_15,Market Street Food Centre,,048940,"50, Market Street, Golden Shoe Multi-Storey Car Park, 2nd/3rd Storey, S(048940)",0,0,,2021-04-13 23:11:42.220696
pid_16,Maxwell Food Centre,,069184,"1, Kadayanallur Street, S(069184)",1.280537908,103.8444748,,2021-04-13 23:11:42.272309
pid_17,Newton Food Centre,,229495,"500, Clemenceau Ave North, S(229495)",1.312185867,103.8394125,,2021-04-13 23:11:42.321053
pid_18,North Bridge Road Market & Food Centre,,198783,"861, North Bridge Road, S(198783)",1.306140807,103.8640993,,2021-04-13 23:11:42.371230
pid_19,Pasir Panjang Food Centre,,118543,"121, Pasir Panjang Road, S(118543)",1.2756987929999999,103.79162,,2021-04-13 23:11:42.406477
pid_20,Serangoon Garden Market,,555945,"49A, Serangoon Garden Way, S(555945)",1.3627368080000002,103.86616219999999,,2021-04-13 23:11:42.453008
pid_21,Sembawang Hill Food Centre,,574419,"590, Upper Thomson Road, S(574419)",1.372384979,103.82899420000001,,2021-04-13 23:11:42.487682
pid_22,Taman Jurong Market & Food Centre,,618499,"3, Yung Sheng Road, S(618499)",1.334682665,103.7216193,,2021-04-13 23:11:42.520703
pid_23,Tanglin Halt Market,,148813,"48A, Tanglin Halt Road, S(148813)",1.300558071,103.7977194,,2021-04-13 23:11:42.557943
pid_24,Tiong Bahru Market,,168898,"30, Seng Poh Road, S(168898)",1.284685992,103.83242159999999,,2021-04-13 23:11:42.598423
pid_25,Zion Riverside Food Centre,,247792,"70, Zion Road, S(247792)",1.292311133,103.8309733,,2021-04-13 23:11:42.640255
pid_26,ABC Brickworks Market & Food Centre,,150006,"Blk 6, Jalan Bukit Merah, S(150006)",1.2869527490000001,103.808128,,2021-04-13 23:11:42.680243
pid_27,Albert Centre Market & Food Centre,,180270,"Blk 270, Queen Street, S(180270)",1.301091805,103.85412190000001,,2021-04-13 23:11:42.722289
pid_28,Alexandra Village Food Centre,,150120,"Blk 120, Bukit Merah Lane, S(150120)",1.286297808,103.80448929999999,,2021-04-13 23:11:42.775346
pid_29,Blk 1 Jalan Kukoh,,161001,"Blk 1, Jalan Kukoh, S(161001)",1.288231015,103.8399342,,2021-04-13 23:11:42.822463
pid_30,Blk 105 Hougang Ave 1,,530105,"Blk 105, Hougang Ave 1, S(530105)",1.353847285,103.89009420000001,,2021-04-13 23:11:42.870640
pid_31,Blk 11 Telok Blangah Crescent,,090011,"Blk 11, Telok Blangah Crescent, S(090011)",1.277366898,103.8186417,,2021-04-13 23:11:42.919331
pid_32,Blk 112 Jalan Bukit Merah,,160112,"Blk 112, Jalan Bukit Merah, S(160112)",1.28000483,103.82601329999999,,2021-04-13 23:11:42.960538
pid_33,Blk 115 Bukit Merah View,,151115,"Blk 115, Bukit Merah View, S(151115)",1.285504832,103.82204940000001,,2021-04-13 23:11:43.001172
pid_34,Blk 117 Aljunied Ave 2,,380117,"Blk 117, Aljunied Ave 2, S(380117)",1.3207810770000001,103.8867735,,2021-04-13 23:11:43.039303
pid_35,Blk 127 Toa Payoh Lorong 1,,310127,"Blk 127, Lorong 1 Toa Payoh, S(310127)",1.3380927679999999,103.8447317,,2021-04-13 23:11:43.076859
pid_36,Blk 137 Tampines Street 11,,521137,"Blk 137, Tampines Street 11, S(521137)",1.3457861119999999,103.94458890000001,,2021-04-13 23:11:43.112615
pid_37,Blk 159 Mei Chin Road,,140159,"Blk 159, Mei Chin Road, S(140159)",1.293236243,103.8029039,,2021-04-13 23:11:43.148406
pid_38,Blk 16 Bedok South Road,,460016,"Blk 16, Bedok South Road, S(460016)",1.320500838,103.9354736,,2021-04-13 23:11:43.186308
pid_39,Blk 163 Bukit Merah Central,,150163,"Blk 163, Bukit Merah Central, S(150163)",1.283881208,103.8169395,,2021-04-13 23:11:43.223572
pid_40,Blk 17 Upper Boon Keng Road,,380017,"Blk 17, Upper Boon Keng Road, S(380017)",1.3150280570000001,103.8716203,,2021-04-13 23:11:43.266242
pid_41,Blk 20 Ghim Moh Road,,270020,"Blk 20, Ghim Moh Road, S(270020)",1.3109101840000001,103.7882414,,2021-04-13 23:11:43.308154
pid_42,Blk 208B New Upper Changi Road,,462208,"Blk 208B, New Upper Changi Road, S(462208)",1.32478237,103.9305703,,2021-04-13 23:11:43.359710
pid_43,Blk 210 Toa Payoh Lorong 8,,310210,"Blk 210, Lorong 8 Toa Payoh, S(310210)",1.3402160090000002,103.8548726,,2021-04-13 23:11:43.397264
pid_44,Blk 216 Bedok North Street 1,,460216,"Blk 216, Bedok North Street 1, S(460216)",1.327044507,103.93328699999999,,2021-04-13 23:11:43.433387
pid_45,Blk 22 Toa Payoh Lorong 7,,310022,"Blk 22, Lorong 7 Toa Payoh, S(310022)",1.335231501,103.85703609999999,,2021-04-13 23:11:43.471177
pid_46,Blk 226D Ang Mo Kio Ave 1,,564226,"Blk 226D, Ang Mo Kio Ave 1, S(564226)",1.3667877,103.8392314,,2021-04-13 23:11:43.502198
pid_47,Blk 226H Ang Mo Kio Street 22,,568226,"Blk 226H, Ang Mo Kio Street 22, S(568226)",1.367144066,103.84014930000001,,2021-04-13 23:11:43.543014
pid_48,Blk 254 Jurong East Street 24,,600254,"Blk 254, Jurong East Street 24, S(600254)",1.3435162569999999,103.737851,,2021-04-13 23:11:43.581584
pid_49,Blk 29 Bendemeer Road,,330029,"Blk 29, Bendemeer Road, S(330029)",1.3192170890000001,103.8630215,,2021-04-13 23:11:43.614100
pid_50,Blk 320 Shunfu Road,,570320,"Blk 320, Shunfu Road, S(570320)",1.351909349,103.83696529999999,,2021-04-13 23:11:43.654956
pid_51,Blk 341 Ang Mo Kio Ave 1,,560341,"Blk 341, Ang Mo Kio Ave 1, S(560341)",1.364119953,103.8482207,,2021-04-13 23:11:43.687784
pid_52,Blk 347 Jurong East Ave 1,,600347,"Blk 347, Jurong East Ave 1, S(600347)",1.345416481,103.73170390000001,,2021-04-13 23:11:43.727627
pid_53,Blk 353 Clementi Ave 2,,120353,"Blk 353, Clementi Ave 2, S(120353)",1.31437918,103.7709196,,2021-04-13 23:11:43.757223
pid_54,Blk 36 Telok Blangah Rise,,090036,"Blk 36, Telok Blangah Rise, S(090036)",1.2726070329999999,103.82202840000001,,2021-04-13 23:11:43.797957
pid_55,Blk 37A Teban Gardens Road,,601037,"Blk 37A, Teban Garden Road, S(601037)",1.320848359,103.7428917,,2021-04-13 23:11:43.836452
pid_56,Blk 409 Ang Mo Kio Ave 10,,560409,"Blk 409, Ang Mo Kio Ave 10, S(560409)",1.362721747,103.8553507,,2021-04-13 23:11:43.871375
pid_57,Blk 44 Holland Drive,,270044,"Blk 44, Holland Drive, S(270044)",1.3081178,103.7927738,,2021-04-13 23:11:43.910298
pid_58,Blk 448 Clementi Ave 3,,120448,"Blk 448, Clementi Ave 3, S(120448)",1.313060361,103.7645213,,2021-04-13 23:11:43.948910
pid_59,Blk 453A Ang Mo Kio Ave 10,,561453,"Blk 453A, Ang Mo Kio Ave 10, S(561453)",1.368240537,103.8563515,,2021-04-13 23:11:43.981817
pid_60,Blk 49 Sims Place,,380049,"Blk 49, Sims Place, S(380049)",1.317083391,103.879417,,2021-04-13 23:11:44.015695
pid_61,Blk 4A Eunos Crescent,,402004,"Blk 4A, Eunos Crescent, S(402004)",1.320340624,103.9043312,,2021-04-13 23:11:44.072836
pid_62,Blk 4A Jalan Batu,,432004,"Blk 4A, Jalan Batu, S(432004)",1.302354225,103.88397990000001,,2021-04-13 23:11:44.115674
pid_63,Blk 4A Woodlands Centre Road,,731004,"Blk 4A, Woodlands Centre Road, S(731004)",0,0,,2021-04-13 23:11:44.580110
pid_64,Blk 502 West  Coast Drive,,120502,"Blk 502, West Coast Drive, S(120502)",1.311885959,103.7590809,,2021-04-13 23:11:44.636200
pid_65,Blk 503 West Coast Drive,,120503,"Blk 503, West Coast Drive, S(120503)",1.311742075,103.759812,,2021-04-13 23:11:44.681117
pid_66,Blk 505 Jurong West Street 52,,640505,"Blk 505, Jurong West Street 52, S(640505)",1.349642302,103.7184475,,2021-04-13 23:11:44.732658
pid_67,Blk 50A Marine Terrace,,441050,"Blk 50A, Marine Terrace, S(441050)",1.3057752040000001,103.915762,,2021-04-13 23:11:44.790446
pid_68,Blk 51 Old Airport Road,,390051,"Blk 51, Old Airport Road, S(390051)",1.308251578,103.8858333,,2021-04-13 23:11:44.835922
pid_69,Blk 511 Bedok North Street 3,,460511,"Blk 511, Bedok North Street 3, S(460511)",1.333307375,103.9306985,,2021-04-13 23:11:44.876573
pid_70,Blk 527 Ang Mo Kio Ave 10,,560527,"Blk 527, Ang Mo Kio Ave 10, S(560527)",1.3729619219999998,103.85445959999998,,2021-04-13 23:11:44.907071
pid_71,Blk 538 Bedok North Street 3,,460538,"Blk 538, Bedok North Street 3, S(460538)",1.331796755,103.9250822,,2021-04-13 23:11:44.948178
pid_72,Blk 58 New Upper Changi Road,,461058,"Blk 58, New Upper Changi Road, S(461058)",1.324116104,103.9411538,,2021-04-13 23:11:44.979928
pid_73,Blk 6 Tanjong Pagar Plaza,,081006,"Blk 6, Tanjong Pagar Plaza, S(081006)",1.27655722,103.84321340000001,,2021-04-13 23:11:45.022506
pid_74,Blk 628 Ang Mo Kio Ave 4,,560628,"Blk 628, Ang Mo Kio Ave 4, S(560628)",1.381024948,103.8406824,,2021-04-13 23:11:45.058917
pid_75,Blk 630 Bedok Reservoir Road,,470630,"Blk 630, Bedok Reservoir Road, S(470630)",1.333159299,103.91405400000001,,2021-04-13 23:11:45.091716
pid_76,Blk 69 Geylang Bahru,,330069,"Blk 69, Geylang Bahru, S(330069)",1.32139947,103.8700461,,2021-04-13 23:11:45.132253
pid_77,Blk 7 Empress Road,,260007,"Blk 7, Empress Road, S(260007)",1.3162457440000002,103.80563640000001,,2021-04-13 23:11:45.173244
pid_78,Blk 724 Ang Mo Kio Ave 6,,560724,"Blk 724, Ang Mo Kio Ave 6, S(560724)",1.37219743,103.8465193,,2021-04-13 23:11:45.203119
pid_79,Blk 726 Clementi West Street 2,,120726,"Blk 726, Clementi West Street 2, S(120726)",1.303782033,103.7642645,,2021-04-13 23:11:45.243767
pid_80,Blk 74 Toa Payoh Lorong 4,,310074,"Blk 74, Lorong 4 Toa Payoh, S(310074)",1.3344802470000001,103.8520087,,2021-04-13 23:11:45.282445
pid_81,Blk 75 Toa Payoh Lorong 5,,310075,"Blk 75, Lorong 5 Toa Payoh, S(310075)",1.33598913,103.8529929,,2021-04-13 23:11:45.315083
pid_82,Blk 79 Redhill Lane,,150079,"Blk 79, Redhill Lane, S(150079)",1.287783453,103.81833420000001,,2021-04-13 23:11:45.353597
pid_83,Blk 79 Telok Blangah Drive,,100079,"Blk 79, Telok Blangah Drive, S(100079)",1.273264737,103.8076282,,2021-04-13 23:11:45.386279
pid_84,Blk 80 Circuit Road,,370080,"Blk 80, Circuit Road, S(370080)",1.3278493059999998,103.88712159999999,,2021-04-13 23:11:45.426827
pid_85,Blk 82 Telok Blangah Drive,,100082,"Blk 82, Telok Blangah Drive, S(100082)",1.273849706,103.8079474,,2021-04-13 23:11:45.465389
pid_86,Blk 84 Marine Parade Central,,440084,"Blk 84, Marine Parade Central, S(440084)",1.302296556,103.9063438,,2021-04-13 23:11:45.516945
pid_87,Blk 85 Bedok North Street 4,,460085,"Blk 85, Bedok North Street 4, S(460085)",1.3320577759999999,103.938715,,2021-04-13 23:11:45.558181
pid_88,Blk 85 Redhill Lane,,150085,"Blk 85, Redhill Lane, S(150085)",1.287330837,103.818339,,2021-04-13 23:11:45.592246
pid_89,Blk 89 Circuit Road,,370089,"Blk 89, Circuit Road, S(370089)",1.323445344,103.8854493,,2021-04-13 23:11:45.632311
pid_90,Blk 90 Whampoa Drive,,320090,"Blk 90, Whampoa Drive, S(320090)",1.322943132,103.85513780000001,,2021-04-13 23:11:45.663317
pid_91,Blk 93 Toa Payoh Lorong 4,,310093,"Blk 93, Lorong 4 Toa Payoh, S(310093)",1.338417345,103.849485,,2021-04-13 23:11:45.704405
pid_92,Blks 13/14 Haig Road,,430013/430014,"Blk 13/14, Haig Road, S(430013/430014)",1.3151075209999998,103.89558790000001,,2021-04-13 23:11:45.734680
pid_93,Blks 160/162 Ang Mo Kio Ave 4,,560160/560162,"Blk 160/162, Ang Mo Kio Ave 4, S(560160/560162)",1.374282625,103.8389772,,2021-04-13 23:11:45.776603
pid_94,Blks 1A/ 2A/ 3A Commonwealth Drive,,141001/141002/141003,"Blk 1A/ 2A/ 3A, Commonwealth Drive, S(141001/141002/141003)",1.299713301,103.7978755,,2021-04-13 23:11:45.805974
pid_95,Blks 2 & 3 Changi Village Road,,500002/500003,"Blk 2/3, Changi Village Road, S(500002/500003)",1.389176868,103.9883278,,2021-04-13 23:11:45.844605
pid_96,Blks 20/21 Marsiling Lane,,730020/730021,"Blk 20/21, Marsiling Lane, S(730020/730021)",1.4434162430000002,103.7770061,,2021-04-13 23:11:45.877383
pid_97,Blks 221 A/B Boon Lay Place,,641221/642221,"Blk 221A/B, Boon Lay Place, S(641221/642221)",1.345169048,103.7128275,,2021-04-13 23:11:45.918531
pid_98,Blks 22A/B Havelock Road,,161022/162022,"Blk 22A/B, Havelock Road, S(161022/162022)",1.287931452,103.8296348,,2021-04-13 23:11:45.949225
pid_99,Blks 79/79A Circuit Road,,370079/371079,"Blk 79/79A, Circuit Road, S(370079/371079)",1.326449969,103.8850436,,2021-04-13 23:11:45.991135
pid_100,Blks 91/92 Whampoa Drive,,320091/320092,"Blk 91/92, Whampoa Drive, S(320091/320092)",1.3232996479999999,103.85420129999999,,2021-04-13 23:11:46.030882
pid_101,Chinatown Market,,050335,"Blk 335, Smith Street, S(050335)",1.282235211,103.84317759999999,,2021-04-13 23:11:46.069860
pid_102,Chong Pang Market & Food Centre,,760104/760105,"Blk 104/105, Yishun Ring Road, S(760104/760105)",1.4315267319999998,103.8284199,,2021-04-13 23:11:46.102054
pid_103,Hong Lim Market & Food Centre,,051531,"Blk 531A, Upper Cross Street, S(051531)",1.285295079,103.8458243,,2021-04-13 23:11:46.143633
pid_104,Kovan Market & Food Centre,,530209,"Blk 209, Hougang Street 21, S(530209)",1.3590972669999999,103.8860623,,2021-04-13 23:11:46.173129
pid_105,Pek Kio Market & Food Centre,,211041,"Blk 41A, Cambridge Road, S(211041)",1.316159985,103.85022509999999,,2021-04-13 23:11:46.214168
pid_106,People's Park Food Centre,,050032,"Blk 32, New Market Road, S(050032)",1.284858608,103.8425788,,2021-04-13 23:11:46.245062
pid_107,Tekka Market,,210665,"Blk 665, Buffalo Road, S(210665)",1.30617773,103.85061,,2021-04-13 23:11:46.286196
pid_107,CITIBANK MARINA BAY LINK MALL,,018981,8 MARINA BOULEVARD CITIBANK MARINA BAY LINK MALL SINGAPORE 018981,1.279794244,103.8545488,,2021-04-13 23:11:48.632571
pid_108,DBS MARINA BAY LINK MALL,,018981,8 MARINA BOULEVARD DBS MARINA BAY LINK MALL SINGAPORE 018981,1.280195333,103.8542077,,2021-04-13 23:11:48.639668
pid_109,GROUND PLAZA (MARINA BAY LINK MALL),,018984,8A MARINA BOULEVARD GROUND PLAZA (MARINA BAY LINK MALL) SINGAPORE 018984,1.279724915,103.8545488,,2021-04-13 23:11:48.647571
pid_110,MARINA BAY LINK MALL,,018984,8A MARINA BOULEVARD MARINA BAY LINK MALL SINGAPORE 018984,1.2804679429999999,103.85347009999998,,2021-04-13 23:11:48.654570
pid_111,OCBC ESPLANADE MALL,,038981,1 ESPLANADE DRIVE OCBC ESPLANADE MALL SINGAPORE 038981,1.290365866,103.8547977,,2021-04-13 23:11:48.660571
pid_112,CITIBANK SUNTEC CITY MALL,,038983,3 TEMASEK BOULEVARD CITIBANK SUNTEC CITY MALL SINGAPORE 038983,1.295711525,103.8585526,,2021-04-13 23:11:48.667570
pid_113,UOB SUNTEC CITY MALL,,038986,6 TEMASEK BOULEVARD UOB SUNTEC CITY MALL SINGAPORE 038986,1.294646745,103.8597244,,2021-04-13 23:11:48.674571
pid_114,UOB CITYLINK MALL,,039393,1 RAFFLES LINK UOB CITYLINK MALL SINGAPORE 039393,1.292603494,103.85431609999999,,2021-04-13 23:11:48.681516
pid_115,CITYLINK MALL,,039393,1 RAFFLES LINK CITYLINK MALL SINGAPORE 039393,1.292378607,103.854663,,2021-04-13 23:11:48.687598
pid_116,ESPLANADE MALL,,039802,8 RAFFLES AVENUE ESPLANADE MALL SINGAPORE 039802,1.289509562,103.8556658,,2021-04-13 23:11:48.694596
pid_117,DBS ESPLANADE MALL,,039802,8 RAFFLES AVENUE DBS ESPLANADE MALL SINGAPORE 039802,1.28935083,103.85590129999999,,2021-04-13 23:11:48.700516
pid_118,CHANGE ALLEY MALL,,048622,30 RAFFLES PLACE CHANGE ALLEY MALL SINGAPORE 048622,1.284143568,103.85199109999999,,2021-04-13 23:11:48.706516
pid_119,SMALL CLAIMS TRIBUNALS,,059724,1 HAVELOCK SQUARE SMALL CLAIMS TRIBUNALS SINGAPORE 059724,1.286209593,103.8434969,,2021-04-13 23:11:48.713516
pid_120,UOB CLEMENTI MALL,,122441,441B CLEMENTI AVENUE 3 UOB CLEMENTI MALL SINGAPORE 122441,1.3148961959999999,103.76442309999999,,2021-04-13 23:11:48.719516
pid_121,OCBC THE CLEMENTI MALL - CLEMENTI BRANCH,,122441,441B CLEMENTI AVENUE 3 OCBC THE CLEMENTI MALL - CLEMENTI BRANCH SINGAPORE 122441,1.3148961959999999,103.76442309999999,,2021-04-13 23:11:48.725647
pid_122,GRANTRAL MALL @ CLEMENTI,,129581,3151 COMMONWEALTH AVENUE WEST GRANTRAL MALL @ CLEMENTI SINGAPORE 129581,1.314231317,103.76509759999999,,2021-04-13 23:11:48.732586
pid_123,CITIBANK CLEMENTI MALL,,129588,3155 COMMONWEALTH AVENUE WEST CITIBANK CLEMENTI MALL SINGAPORE 129588,1.315553543,103.7645964,,2021-04-13 23:11:48.738587
pid_124,THE CLEMENTI MALL,,129588,3155 COMMONWEALTH AVENUE WEST THE CLEMENTI MALL SINGAPORE 129588,1.315496754,103.76457020000001,,2021-04-13 23:11:48.744586
pid_125,DBS CLEMENTI MALL,,129588,3155 COMMONWEALTH AVENUE WEST DBS CLEMENTI MALL SINGAPORE 129588,1.315495939,103.7645838,,2021-04-13 23:11:48.750586
pid_126,OCBC THE CLEMENTI MALL - FAIRPRICE,,129588,3155 COMMONWEALTH AVENUE WEST OCBC THE CLEMENTI MALL - FAIRPRICE SINGAPORE 129588,1.3151619079999999,103.7647118,,2021-04-13 23:11:48.756587
pid_127,DBS NTUC CLEMENTI MALL,,129588,3155 COMMONWEALTH AVENUE WEST DBS NTUC CLEMENTI MALL SINGAPORE 129588,1.315495939,103.7645838,,2021-04-13 23:11:48.762586
pid_128,STANDARD CHARTERED BANK CLEMENTI MALL,,129588,3155 COMMONWEALTH AVENUE WEST STANDARD CHARTERED BANK CLEMENTI MALL SINGAPORE 129588,1.315553403,103.7645276,,2021-04-13 23:11:48.768587
pid_129,ROCHESTER MALL,,138639,35 ROCHESTER DRIVE ROCHESTER MALL SINGAPORE 138639,1.305317927,103.7885239,,2021-04-13 23:11:48.774587
pid_130,COMMONWEALTH CAR MALL,,149554,15 COMMONWEALTH LANE COMMONWEALTH CAR MALL SINGAPORE 149554,1.305976525,103.7970566,,2021-04-13 23:11:48.780663
pid_131,ALBERT MALL TRISHAW PARK,,188067,QUEEN STREET ALBERT MALL TRISHAW PARK SINGAPORE 188067,1.299660165,103.8535181,,2021-04-13 23:11:48.786664
pid_132,PARKLANE SHOPPING MALL,,188307,35 SELEGIE ROAD PARKLANE SHOPPING MALL SINGAPORE 188307,1.300651026,103.84944200000001,,2021-04-13 23:11:48.791663
pid_133,DBS PARKLANE SHOPPING MALL,,188307,35 SELEGIE ROAD DBS PARKLANE SHOPPING MALL SINGAPORE 188307,1.300651027,103.84944200000001,,2021-04-13 23:11:48.797910
pid_134,OCBC PARKLANE SHOPPING MALL,,188307,35 SELEGIE ROAD OCBC PARKLANE SHOPPING MALL SINGAPORE 188307,1.300651027,103.84944200000001,,2021-04-13 23:11:48.797910
pid_135,UOB PARKLANE SHOPPING MALL,,188307,35 SELEGIE ROAD UOB PARKLANE SHOPPING MALL SINGAPORE 188307,1.300645302,103.84944859999999,,2021-04-13 23:11:48.808073
pid_136,OCBC CITY SQUARE MALL - BRANCH,,208539,180 KITCHENER ROAD OCBC CITY SQUARE MALL - BRANCH SINGAPORE 208539,1.311382719,103.85662690000001,,2021-04-13 23:11:48.816166
pid_137,OCBC CITY SQUARE MALL - FAIRPRICE,,208539,180 KITCHENER ROAD OCBC CITY SQUARE MALL - FAIRPRICE SINGAPORE 208539,1.311382719,103.85662690000001,,2021-04-13 23:11:48.818256
pid_138,CITIBANK CITY SQUARE MALL,,208539,180 KITCHENER ROAD CITIBANK CITY SQUARE MALL SINGAPORE 208539,1.311351699,103.8567241,,2021-04-13 23:11:48.828359
pid_139,UOB CITY SQUARE MALL AUTOLOBBY,,208539,180 KITCHENER ROAD UOB CITY SQUARE MALL AUTOLOBBY SINGAPORE 208539,1.31138865,103.8566262,,2021-04-13 23:11:48.829363
pid_140,CITY SQUARE MALL,,208539,180 KITCHENER ROAD CITY SQUARE MALL SINGAPORE 208539,1.31147745,103.8567808,,2021-04-13 23:11:48.838542
pid_141,DBS CITY SQUARE MALL,,208539,180 KITCHENER ROAD DBS CITY SQUARE MALL SINGAPORE 208539,1.3111960329999999,103.85664809999999,,2021-04-13 23:11:48.838542
pid_142,LEAP SCHOOLHOUSE @ CITY SQUARE MALL PTE LTD,,208539,180 KITCHENER ROAD LEAP SCHOOLHOUSE @ CITY SQUARE MALL PTE LTD SINGAPORE 208539,1.311393494,103.8564871,,2021-04-13 23:11:48.849668
pid_143,CONCORDE HOTEL AND SHOPPING MALL,,238840,100 ORCHARD ROAD CONCORDE HOTEL AND SHOPPING MALL SINGAPORE 238840,1.300619223,103.8422285,,2021-04-13 23:11:48.856747
pid_144,FORUM THE SHOPPING MALL,,238884,583 ORCHARD ROAD FORUM THE SHOPPING MALL SINGAPORE 238884,1.306125226,103.8286755,,2021-04-13 23:11:48.858823
pid_145,DBS FORUM THE SHOPPING MALL,,238884,583 ORCHARD ROAD DBS FORUM THE SHOPPING MALL SINGAPORE 238884,1.306248731,103.82903490000001,,2021-04-13 23:11:48.866859
pid_146,CITIBANK FORUM THE SHOPPING MALL,,238884,583 ORCHARD ROAD CITIBANK FORUM THE SHOPPING MALL SINGAPORE 238884,1.306554305,103.8286525,,2021-04-13 23:11:48.868936
pid_147,OCBC FORUM THE SHOPPING MALL,,238884,583 ORCHARD ROAD OCBC FORUM THE SHOPPING MALL SINGAPORE 238884,1.306248731,103.82903490000001,,2021-04-13 23:11:48.879095
pid_148,UE SHOPPING MALL,,239920,83 CLEMENCEAU AVENUE UE SHOPPING MALL SINGAPORE 239920,1.292072295,103.84260390000001,,2021-04-13 23:11:48.879095
pid_149,DBS TANGLIN MALL,,247933,163 TANGLIN ROAD DBS TANGLIN MALL SINGAPORE 247933,1.304853421,103.8238835,,2021-04-13 23:11:48.890304
pid_150,TANGLIN MALL,,247933,163 TANGLIN ROAD TANGLIN MALL SINGAPORE 247933,1.304853421,103.8238835,,2021-04-13 23:11:48.897446
pid_151,OCBC TANGLIN MALL,,247933,163 TANGLIN ROAD OCBC TANGLIN MALL SINGAPORE 247933,1.304853421,103.8238835,,2021-04-13 23:11:48.899517
pid_152,UOB TANGLIN MALL,,247933,163 TANGLIN ROAD UOB TANGLIN MALL SINGAPORE 247933,1.304853421,103.8238835,,2021-04-13 23:11:48.908636
pid_153,UOB ZHONGSHAN MALL,,329982,16 AH HOOD ROAD UOB ZHONGSHAN MALL SINGAPORE 329982,1.326945045,103.84655440000002,,2021-04-13 23:11:48.910713
pid_154,ZHONGSHAN MALL,,329984,20 AH HOOD ROAD ZHONGSHAN MALL SINGAPORE 329984,1.326945045,103.84655440000002,,2021-04-13 23:11:48.919927
pid_155,SMALL WORLD EDUCARE CENTRE PTE. LTD.,,339631,1 GEYLANG BAHRU LANE SMALL WORLD EDUCARE CENTRE PTE. LTD. SINGAPORE 339631,1.324154324,103.86969309999999,,2021-04-13 23:11:48.919927
pid_156,MACPHERSON MALL,,368125,401 MACPHERSON ROAD MACPHERSON MALL SINGAPORE 368125,1.331721416,103.8794275,,2021-04-13 23:11:48.931048
pid_157,DBS NTUC MACPHERSON MALL,,368125,401 MACPHERSON ROAD DBS NTUC MACPHERSON MALL SINGAPORE 368125,1.331770545,103.8792945,,2021-04-13 23:11:48.938123
pid_158,OCBC MACPHERSON MALL - FAIRPRICE,,368125,401 MACPHERSON ROAD OCBC MACPHERSON MALL - FAIRPRICE SINGAPORE 368125,1.331770545,103.8792945,,2021-04-13 23:11:48.940196
pid_159,GRANTRAL MALL @ MACPHERSON,,368242,601 MACPHERSON ROAD GRANTRAL MALL @ MACPHERSON SINGAPORE 368242,1.333722109,103.8875308,,2021-04-13 23:11:48.948245
pid_160,51 OLD AIRPORT ROAD FOOD CENTRE AND SHOPPING MALL,,390051,51 OLD AIRPORT ROAD 51 OLD AIRPORT ROAD FOOD CENTRE AND SHOPPING MALL SINGAPORE 390051,1.308251577,103.8858333,,2021-04-13 23:11:48.950330
pid_161,KALLANG WAVE MALL,,397628,1 STADIUM PLACE KALLANG WAVE MALL SINGAPORE 397628,1.303843272,103.8727507,,2021-04-13 23:11:48.958405
pid_162,UBI CAR MALL,,408616,18 UBI ROAD 4 UBI CAR MALL SINGAPORE 408616,1.332220489,103.8995825,,2021-04-13 23:11:48.960478
pid_163,PLQ MALL,,409057,10 PAYA LEBAR ROAD PLQ MALL SINGAPORE 409057,1.317482311,103.8928322,,2021-04-13 23:11:48.970607
pid_164,THE FLOW MALL,,428778,66 EAST COAST ROAD THE FLOW MALL SINGAPORE 428778,1.30455858,103.9042117,,2021-04-13 23:11:48.971608
pid_165,IMALL,,449410,5 MARINE PARADE CENTRAL IMALL SINGAPORE 449410,1.303120981,103.9065458,,2021-04-13 23:11:48.980815
pid_166,BEDOK MALL,,467360,311 NEW UPPER CHANGI ROAD BEDOK MALL SINGAPORE 467360,1.3246689740000002,103.9294055,,2021-04-13 23:11:48.980815
pid_167,CITIBANK BEDOK MALL,,467360,311 NEW UPPER CHANGI ROAD CITIBANK BEDOK MALL SINGAPORE 467360,1.324772074,103.9292677,,2021-04-13 23:11:48.991954
pid_168,DBS BEDOK MALL 1,,467360,311 NEW UPPER CHANGI ROAD DBS BEDOK MALL 1 SINGAPORE 467360,1.324772074,103.9292677,,2021-04-13 23:11:48.999061
pid_169,OCBC BEDOK MALL - FAIRPRICE,,467360,311 NEW UPPER CHANGI ROAD OCBC BEDOK MALL - FAIRPRICE SINGAPORE 467360,1.324772074,103.9292677,,2021-04-13 23:11:49.001118
pid_170,UOB BEDOK MALL,,467360,311 NEW UPPER CHANGI ROAD UOB BEDOK MALL SINGAPORE 467360,1.324772074,103.9292677,,2021-04-13 23:11:49.011227
pid_171,DJITSUN MALL BEDOK,,469661,445 BEDOK NORTH STREET 1 DJITSUN MALL BEDOK SINGAPORE 469661,1.326053199,103.92960459999999,,2021-04-13 23:11:49.012228
pid_172,AMAR KIDZ @ ELIAS MALL PTE. LTD.,,510623,623 ELIAS ROAD AMAR KIDZ @ ELIAS MALL PTE. LTD. SINGAPORE 510623,1.377905331,103.9423358,,2021-04-13 23:11:49.021347
pid_173,UOB WHITE SANDS MALL,,518457,1 PASIR RIS CENTRAL STREET 3 UOB WHITE SANDS MALL SINGAPORE 518457,1.372449817,103.9497157,,2021-04-13 23:11:49.021347
pid_174,EASTPOINT MALL,,528833,3 SIMEI STREET 6 EASTPOINT MALL SINGAPORE 528833,1.342586441,103.9530723,,2021-04-13 23:11:49.032509
pid_175,OCBC EASTPOINT MALL - FAIRPRICE,,528833,3 SIMEI STREET 6 OCBC EASTPOINT MALL - FAIRPRICE SINGAPORE 528833,1.342691998,103.95305079999999,,2021-04-13 23:11:49.041836
pid_176,UOB EASTPOINT MALL AUTO LOBBY,,528833,3 SIMEI STREET 6 UOB EASTPOINT MALL AUTO LOBBY SINGAPORE 528833,1.342691998,103.95305079999999,,2021-04-13 23:11:49.050064
pid_177,DBS EASTPOINT MALL EBC 1,,528833,3 SIMEI STREET 6 DBS EASTPOINT MALL EBC 1 SINGAPORE 528833,1.342691998,103.95305079999999,,2021-04-13 23:11:49.053114
pid_178,OCBC TAMPINES MALL,,529510,4 TAMPINES CENTRAL 5 OCBC TAMPINES MALL SINGAPORE 529510,1.352593614,103.944786,,2021-04-13 23:11:49.062428
pid_179,UOB TAMPINES MALL,,529510,4 TAMPINES CENTRAL 5 UOB TAMPINES MALL SINGAPORE 529510,1.3526723219999999,103.944388,,2021-04-13 23:11:49.072717
pid_180,TAMPINES MALL,,529510,4 TAMPINES CENTRAL 5 TAMPINES MALL SINGAPORE 529510,1.3525802519999999,103.94469620000001,,2021-04-13 23:11:49.083100
pid_181,UOB TAMPINES MALL AUTOLOBBY,,529510,4 TAMPINES CENTRAL 5 UOB TAMPINES MALL AUTOLOBBY SINGAPORE 529510,1.3526723219999999,103.944388,,2021-04-13 23:11:49.093259
pid_182,EASTLINK MALL,,529543,8 TAMPINES CENTRAL 1 EASTLINK MALL SINGAPORE 529543,1.3543296969999998,103.9443186,,2021-04-13 23:11:49.103932
pid_183,HEARTLAND MALL-KOVAN,,530205,205 HOUGANG STREET 21 HEARTLAND MALL-KOVAN SINGAPORE 530205,1.359544509,103.8851691,,2021-04-13 23:11:49.114450
pid_184,OCBC HEARTLAND MALL,,530205,205 HOUGANG STREET 21 OCBC HEARTLAND MALL SINGAPORE 530205,1.359544509,103.8851691,,2021-04-13 23:11:49.128288
pid_185,DBS HEARTLAND MALL BRANCH,,530205,205 HOUGANG STREET 21 DBS HEARTLAND MALL BRANCH SINGAPORE 530205,1.359544509,103.8851691,,2021-04-13 23:11:49.135288
pid_186,CITIBANK HEARTLAND MALL,,530205,205 HOUGANG STREET 21 CITIBANK HEARTLAND MALL SINGAPORE 530205,1.3595417730000001,103.88516740000001,,2021-04-13 23:11:49.146561
pid_187,UOB HEARTLAND MALL,,530205,205 HOUGANG STREET 21 UOB HEARTLAND MALL SINGAPORE 530205,1.359544509,103.8851691,,2021-04-13 23:11:49.155756
pid_188,UOB HOUGANG GREEN SHOPPING MALL,,538719,21 HOUGANG STREET 51 UOB HOUGANG GREEN SHOPPING MALL SINGAPORE 538719,1.379317835,103.88784709999999,,2021-04-13 23:11:49.165951
pid_189,HOUGANG GREEN SHOPPING MALL,,538719,21 HOUGANG STREET 51 HOUGANG GREEN SHOPPING MALL SINGAPORE 538719,1.379317835,103.88784709999999,,2021-04-13 23:11:49.184323
pid_190,DBS HOUGANG GREEN SHOPPING MALL,,538719,21 HOUGANG STREET 51 DBS HOUGANG GREEN SHOPPING MALL SINGAPORE 538719,1.379317835,103.88784709999999,,2021-04-13 23:11:49.195376
pid_191,DBS SHOP N SAVE HOUGANG GREEN SHOPPING MALL,,538719,21 HOUGANG STREET 51 DBS SHOP N SAVE HOUGANG GREEN SHOPPING MALL SINGAPORE 538719,1.379317835,103.88784709999999,,2021-04-13 23:11:49.206772
pid_192,OCBC HOUGANG GREEN SHOPPING MALL,,538719,21 HOUGANG STREET 51 OCBC HOUGANG GREEN SHOPPING MALL SINGAPORE 538719,1.379317835,103.88784709999999,,2021-04-13 23:11:49.217139
pid_193,OCBC HOUGANG MALL BRANCH,,538766,90 HOUGANG AVENUE 10 OCBC HOUGANG MALL BRANCH SINGAPORE 538766,1.372483087,103.8937881,,2021-04-13 23:11:49.230171
pid_194,UOB HOUGANG MALL,,538766,90 HOUGANG AVENUE 10 UOB HOUGANG MALL SINGAPORE 538766,1.372483087,103.8937881,,2021-04-13 23:11:49.244027
pid_195,HOUGANG MALL,,538766,90 HOUGANG AVENUE 10 HOUGANG MALL SINGAPORE 538766,1.3724367830000002,103.89372390000001,,2021-04-13 23:11:49.255963
pid_196,DBS HOUGANG MALL,,538766,90 HOUGANG AVENUE 10 DBS HOUGANG MALL SINGAPORE 538766,1.372483087,103.8937881,,2021-04-13 23:11:49.268108
pid_197,DBS NTUC HOUGANG MALL,,538766,90 HOUGANG AVENUE 10 DBS NTUC HOUGANG MALL SINGAPORE 538766,1.372483087,103.8937881,,2021-04-13 23:11:49.279216
pid_198,KANG KAR MALL,,538767,100 HOUGANG AVENUE 10 KANG KAR MALL SINGAPORE 538767,1.371730573,103.89420849999999,,2021-04-13 23:11:49.286362
pid_199,DBS NTUC KANG KAR MALL,,538767,100 HOUGANG AVENUE 10 DBS NTUC KANG KAR MALL SINGAPORE 538767,1.3717799609999999,103.8941654,,2021-04-13 23:11:49.295414
pid_200,SENGKANG GRAND MALL,,544692,70 COMPASSVALE BOW SENGKANG GRAND MALL SINGAPORE 544692,1.383151936,103.8922958,,2021-04-13 23:11:49.299550
pid_201,OCBC RIVERVALE MALL,,545082,11 RIVERVALE CRESCENT OCBC RIVERVALE MALL SINGAPORE 545082,1.3922173269999998,103.90447309999999,,2021-04-13 23:11:49.309929
pid_202,OCBC RIVERVALE MALL - FAIRPRICE,,545082,11 RIVERVALE CRESCENT OCBC RIVERVALE MALL - FAIRPRICE SINGAPORE 545082,1.3922173269999998,103.90447309999999,,2021-04-13 23:11:49.317189
pid_203,RIVERVALE MALL,,545082,11 RIVERVALE CRESCENT RIVERVALE MALL SINGAPORE 545082,1.3922173269999998,103.90447309999999,,2021-04-13 23:11:49.319330
pid_204,UOB RIVERVALE MALL,,545082,11 RIVERVALE CRESCENT UOB RIVERVALE MALL SINGAPORE 545082,1.3922173269999998,103.90447309999999,,2021-04-13 23:11:49.329403
pid_205,DBS RIVERVALE MALL,,545082,11 RIVERVALE CRESCENT DBS RIVERVALE MALL SINGAPORE 545082,1.3922173269999998,103.90447309999999,,2021-04-13 23:11:49.337550
pid_206,CITIBANK NEX MALL,,556083,23 SERANGOON CENTRAL CITIBANK NEX MALL SINGAPORE 556083,1.350645795,103.8725905,,2021-04-13 23:11:49.344743
pid_207,THE VETERINARY CLINIC PTE LTD (NEX MALL BRANCH),,556083,23 SERANGOON CENTRAL THE VETERINARY CLINIC PTE LTD (NEX MALL BRANCH) SINGAPORE 556083,1.350888822,103.8721157,,2021-04-13 23:11:49.350146
pid_208,DBS NTUC NEX SHOPPING MALL,,556138,20 SERANGOON AVENUE 2 DBS NTUC NEX SHOPPING MALL SINGAPORE 556138,1.350514957,103.8727197,,2021-04-13 23:11:49.358302
pid_209,DJIT SUN MALL,,569663,5 ANG MO KIO CENTRAL 2 DJIT SUN MALL SINGAPORE 569663,1.372854257,103.8476079,,2021-04-13 23:11:49.361593
pid_210,BISHAN NORTH SHOPPING MALL,,570282,282 BISHAN STREET 22 BISHAN NORTH SHOPPING MALL SINGAPORE 570282,1.357794874,103.8446747,,2021-04-13 23:11:49.370884
pid_211,THE FURNITURE MALL,,608838,10 TOH GUAN ROAD THE FURNITURE MALL SINGAPORE 608838,1.332259906,103.7480748,,2021-04-13 23:11:49.370884
pid_212,OCBC PIONEER MALL,,640638,638 JURONG WEST STREET 61 OCBC PIONEER MALL SINGAPORE 640638,1.341743161,103.69728620000001,,2021-04-13 23:11:49.382084
pid_213,DBS PIONEER MALL,,640638,638 JURONG WEST STREET 61 DBS PIONEER MALL SINGAPORE 640638,1.341673319,103.6972445,,2021-04-13 23:11:49.391396
pid_214,PIONEER MALL,,640638,638 JURONG WEST STREET 61 PIONEER MALL SINGAPORE 640638,1.341591087,103.69702009999999,,2021-04-13 23:11:49.391396
pid_215,UOB PIONEER MALL,,640638,638 JURONG WEST STREET 61 UOB PIONEER MALL SINGAPORE 640638,1.34172919,103.69722370000001,,2021-04-13 23:11:49.401644
pid_216,CATHAY CINEPLEX WEST MALL,,658713,1 BUKIT BATOK CENTRAL LINK CATHAY CINEPLEX WEST MALL SINGAPORE 658713,1.3500971480000001,103.74921390000002,,2021-04-13 23:11:49.409799
pid_217,DBS WEST MALL,,658713,1 BUKIT BATOK CENTRAL LINK DBS WEST MALL SINGAPORE 658713,1.3503754159999999,103.7491239,,2021-04-13 23:11:49.411957
pid_218,UOB WEST MALL,,658713,1 BUKIT BATOK CENTRAL LINK UOB WEST MALL SINGAPORE 658713,1.3502968359999998,103.74906419999999,,2021-04-13 23:11:49.422124
pid_219,WEST MALL,,658713,1 BUKIT BATOK CENTRAL LINK WEST MALL SINGAPORE 658713,1.3501891659999998,103.749022,,2021-04-13 23:11:49.430135
pid_220,DBS NTUC HILLION MALL,,678278,17 PETIR ROAD DBS NTUC HILLION MALL SINGAPORE 678278,1.378411651,103.7638295,,2021-04-13 23:11:49.432327
pid_221,OCBC HILLION MALL - FAIRPRICE,,678278,17 PETIR ROAD OCBC HILLION MALL - FAIRPRICE SINGAPORE 678278,1.3784822490000002,103.7636728,,2021-04-13 23:11:49.442554
pid_222,HILLION MALL,,678278,17 PETIR ROAD HILLION MALL SINGAPORE 678278,1.378498681,103.76302290000001,,2021-04-13 23:11:49.452774
pid_223,"LOT ONE, SHOPPERS' MALL",,689812,21 CHOA CHU KANG AVENUE 4 LOT ONE SHOPPERS' MALL SINGAPORE 689812,1.385111549,103.7450362,,2021-04-13 23:11:49.462964
pid_224,DBS NTUC LOT 1 SHOPPERS' MALL,,689812,21 CHOA CHU KANG AVENUE 4 DBS NTUC LOT 1 SHOPPERS' MALL SINGAPORE 689812,1.385068365,103.74495040000001,,2021-04-13 23:11:49.473027
pid_225,OCBC LOT 1 SHOPPERS MALL,,689812,21 CHOA CHU KANG AVENUE 4 OCBC LOT 1 SHOPPERS MALL SINGAPORE 689812,1.38511155,103.7450362,,2021-04-13 23:11:49.485130
pid_226,MARSILING MALL HAWKER CENTRE,,738623,4 WOODLANDS STREET 12 MARSILING MALL HAWKER CENTRE SINGAPORE 738623,1.433512535,103.7797469,,2021-04-13 23:11:49.495177
pid_227,WISTERIA MALL,,768698,598 YISHUN RING ROAD WISTERIA MALL SINGAPORE 768698,1.417999263,103.8412365,,2021-04-13 23:11:49.504117
pid_228,OCBC WISTERIA MALL - FAIRPRICE,,768698,598 YISHUN RING ROAD OCBC WISTERIA MALL - FAIRPRICE SINGAPORE 768698,1.4179896909999998,103.8413173,,2021-04-13 23:11:49.514248
pid_229,DBS SELETAR MALL ABM,,797653,33 SENGKANG WEST AVENUE DBS SELETAR MALL ABM SINGAPORE 797653,1.391396846,103.876237,,2021-04-13 23:11:49.523454
pid_230,UOB THE SELETAR MALL,,797653,33 SENGKANG WEST AVENUE UOB THE SELETAR MALL SINGAPORE 797653,1.391501926,103.87617159999999,,2021-04-13 23:11:49.533811
pid_231,OCBC SELETAR MALL - FAIRPRICE,,797653,33 SENGKANG WEST AVENUE OCBC SELETAR MALL - FAIRPRICE SINGAPORE 797653,1.391396846,103.876237,,2021-04-13 23:11:49.544000
pid_232,THE SELETAR MALL,,797653,33 SENGKANG WEST AVENUE THE SELETAR MALL SINGAPORE 797653,1.391393061,103.87606770000001,,2021-04-13 23:11:49.552384
pid_233,DBS SELETAR MALL BRANCH,,797653,33 SENGKANG WEST AVENUE DBS SELETAR MALL BRANCH SINGAPORE 797653,1.391396846,103.876237,,2021-04-13 23:11:49.561756
pid_234,DBS GREENWICH MALL,,807011,1 SELETAR ROAD DBS GREENWICH MALL SINGAPORE 807011,1.387367695,103.869348,,2021-04-13 23:11:49.565520
